place_name,address,lat,lon,tags,description,category_clean,governorateId
Desert Rose,"1700 N. Hillhurst Ave. Los Angeles, CA 90027",25.7172119,32.6013218,"cafe, restaurant","See photos and read reviews for the Desert Rose coffee shop in Hurghada, Egypt. Everything you need to know about the Desert Rose coffee shop at",food_drink,27
El Zaeem,"Block 29, 2nd Neighbourhood, 1st District, Badr city, Cairo Inside El Zaeem Mall, 1st Floor",25.694829,32.6399547,"budget_friendly, local_favorite","El Zaeem For Real Estate Investment & Contracting is a real estate firm located in Badr City, Cairo, operating from inside El Zaeem Mall on the first floor. The company offers real estate investment, contracting, and development services, and can be contacted via phone for directions and additional information.",other,9
بندق,"New Cairo 1, Cairo Governorate 4720111, Egypt",25.6936295,32.6394602,"cafe, local_favorite, restaurant","Consider the needs of your employees. Lease a location that offers amenities like nearby restaurants, recreational spaces, and transportation options. Assess the quality of infrastructure and technology available in the area. Ensure the location provides reliable internet connectivity, advanced telecommunication services, and other technological infrastructure required for your business operations.",food_drink,9
Kam Thai,"El-Madina El-Monawarra, Gazirat Al Awameyah, Luxor, Luxor Governorate 1362211, Egypt",25.6866674,32.6350118,"cozy, restaurant","Experience the true taste of Thailand with dishes prepared by a Thai cook, featuring homemade chili paste and perfectly balanced flavors. The homemade chili paste and shrimp coconut rice are frequently highlighted as must‑try items, with many visitors returning for a second meal. Yes, Kam Thai does offer delivery services. Diners consistently praise the friendly and humorous service, the cozy ambiance, and the excellent value for money.",food_drink,3
Nour el balad,"Luxor, Egypt",25.7172423,32.5957457,"budget_friendly, restaurant","Nour El Balad Hotel Luxor is located about a 25-minute walk from the ancient Egyptian necropolis ""Valley of the Queens"". Boasting a location only a few steps from the Temple of Medinet Habu, the hotel features 21 rooms as well as a restaurant and a storage for belongings. You'll need 33-minute drive to Luxor International airport.",other,3
Pizza Roma.it,"St، Joseph street، Elawamya, Luxor, Egypt",25.6884689,32.6346382,"cozy, restaurant","If you're looking for a place to enjoy an authentic pizza experience in Luxor, Pizza Roma is the spot to visit. Nestled on St. Joseph Street in Elawamya, this pizzeria offers a cozy atmosphere that makes it a great choice for casual dining. Whether you're a local or a tourist exploring the historic city, the restaurant's menu is sure to satisfy your cravings with its variety of freshly baked pizzas.",food_drink,3
Quick pizza,,25.6925802,32.6401146,"fast_food, restaurant","We are excited to announce our partnership with Pizza Inn for the Arab Republic of Egypt and have full confidence that together we will further establish the brand as a household name across Egypt, said Magdy Al Khazrjy. The outlet offers Pizza Inn's signature menu of pizzas, pasta dishes, wings and famous Pizzerts®, aiming to open two additional locations each year for the next three years across Egyptian cities.",food_drink,9
Desert Rose,"Hurghada, Egypt",25.7172119,32.6013218,"cafe, cozy, local_favorite","Desert Rose is a coffee shop located in Hurghada, Egypt, offering a cozy setting for coffee lovers. Reviews highlight its inviting atmosphere and convenient location in the Red Sea governorate. The venue provides a comfortable spot for relaxation and light meals.",food_drink,27
El Zaeem,"Block 29, 2nd Neighbourhood, 1St District, Badr city, Cairo Inside El Zaeem Mall, 1St Floor",25.694829,32.6399547,"hidden_gem, local_favorite, luxury","El Zaeem For Real Estate Investment & Contracting is a real estate investment and contracting company located in Badr City, Cairo, operating from the first floor of El Zaeem Mall. The firm specializes in real estate services for clients in Egypt. It appears to provide property development and management solutions within the Mall's business district.",other,9
بندق,"New Cairo 1, Cairo Governorate 4720111, Egypt",25.6936295,32.6394602,"fine_dining, luxury, restaurant","We are located in New Cairo 1, Cairo Governorate 4720111, Egypt We are thrilled to announce the successful launch and grand opening of the first CZN Burak Restaurant in Egypt, on 17 November 2024, a collaboration between Dives Holding, the esteemed hospitality group behind the CZN Burak brands, and ElWakil F&B, the main representative for CZN Burak Restaurant in Egypt. We invite everyone to join us in celebrating this exciting addition to Egypt’s vibrant culinary scene, where guests can experience the delightful flavors and unique dining experience that CZN Burak is known for.",food_drink,9
Kam Thai,"El-Madina El-Monawwara, Gazirat Al Awameyah, Luxor, Luxor Governorate 1362211, Egypt",25.6866674,32.6350118,"cozy, local_favorite, restaurant","Experience the true taste of Thailand with dishes prepared by a Thai cook, featuring homemade chili paste and perfectly balanced flavors. Kam Thai is lauded as an absolute gem in Luxor, offering incredibly authentic and flavorful Thai cuisine that provides a welcome break from local dishes.",food_drink,3
Nour el balad,"Nour El Balad, Luxor, Egypt",25.7172423,32.5957457,"historical_site, restaurant, spa, tourist_hotspot","Nour El Balad Hotel Luxor is located about a 25-minute walk from the ancient Egyptian necropolis ""Valley of the Queens"". Boasting a location only a few steps from the Temple of Medinet Habu, the hotel features 21 rooms as well as a restaurant and a storage for belongings.",relaxation,3
Pizza Roma.it,"St، Joseph street، Elawamya, Luxor, Egypt",25.6884689,32.6346382,"cozy, restaurant, tourist_hotspot","If you're looking for a place to enjoy an authentic pizza experience in Luxor, Pizza Roma is the spot to visit. Nestled on St. Joseph Street in Elawamya, this pizzeria offers a cozy atmosphere that makes it a great choice for casual dining. Whether you're a local or a tourist exploring the historic city, the restaurant's menu is sure to satisfy your cravings with its variety of freshly baked pizzas.",food_drink,3
Quick pizza,,25.6925802,32.6401146,"family_friendly, fast_food, restaurant","Quick pizza provides a menu that includes pizzas, pasta dishes, wings and Pizzerts®. It aims to establish itself as a household name across Egypt by offering quick, satisfying meals. The brand focuses on creating memorable moments for customers through its varied menu.",food_drink,9
Kher and Baraka restaurant,"Alexandria, Egypt",25.7017363,32.6436201,"cozy, fast_food, local_favorite, restaurant","El Baraka is a restaurant in Alexandria, Egypt, offering delivery services with a 4.5-star rating based on four reviews. It features a menu that can be explored by selecting the area. The establishment is known for its fast‑food style fare, including fried chicken.",food_drink,4
Panorama Restaurant & Coffee,"Panorama Ramsis Hotel & Cafe, Cairo, Egypt",25.7300187,32.6143532,"cafe, cozy, restaurant","Panorama Restaurant & Coffee is located within Panorama Ramsis Hotel & Cafe, a venue that includes a coffee shop, restaurant, and bar/lounge area. The property offers amenities such as Wi‑Fi, 24‑hour reception, room service, in‑room breakfast, and air‑conditioned rooms with terrace, mini‑bar, and tea/coffee facilities.",food_drink,9
El Fayrouz,"El-Gezeera Village El Fayrouz Hotel, Luxor Egypt.",25.7052581,32.6315787,"cozy, fine_dining, restaurant","El-Gezeera Village El Fayrouz Hotel, Luxor Egypt. CUISINES. Mediterranean, Middle Eastern, Egyptian. Meal types.",food_drink,3
Abu el Hasan Shazly,"2 Ibrahim Abdel Sayed Street, at the Batalsa traffic light, in front of the stadium , Alexandria – Egypt",25.6953885,32.6420551,"hidden_gem, local_favorite, tourist_hotspot","Al-Shazly provides logistic services with branches in Alexandria, Egypt and Sharjah, United Arab Emirates. In Egypt, the office is located at 2 Ibrahim Abdel Sayed Street, at the Batalsa traffic light, in front of the stadium. The company can be contacted via phone numbers +20 120 008 1200 (Egypt) and +971 505 169 058 (UAE).",other,4
Maratonga,"Unnamed Road, Al Bairat, Luxor, Luxor Governorate 85958, Egypt",25.7182172,32.6023209,"cozy, family_friendly, restaurant, tourist_hotspot","Welcome to Cafe & Restaurant Maratonga, a hidden gem nestled in the charming district of Medinet Habu, Luxor. With warm hospitality and a commitment to quality, Maratonga has quickly garnered positive reviews from satisfied patrons. Experience the genuine hospitality of a family run restaurant, just steps away from the Habu Temple. Relish your meal while gazing at the Habu Temple, making for an unforgettable dining experience.",food_drink,3
Banana Island,"Nile River, Luxor, Egypt",25.6860251,32.6218399,"nature, river_view, tourist_hotspot","Banana Island is a historic island on the east bank of the Nile in Luxor, Egypt, known for its eccentric café run by custodian Mr. Lovely. The island hosts a farm spanning 170 acres in the Nile River delta, near Damietta port. Visitors can enjoy a motorboat ride and spend an afternoon exploring the scenic location.",activities,3
مطعم أحباب الحبيب,"مصر الجديدة - ميدان هليوبوليس, القاهرة, مصر",25.6956629,32.6420172,"budget_friendly, family_friendly, local_favorite, restaurant, street_food","مطعم أحباب الحبيب is a restaurant in Heliopolis, Cairo, Egypt, specializing in Egyptian street food and traditional mezze. The menu includes hawawshi, grilled kebabs, falafel, and baklava, and the venue offers delivery services. Reviewers note a friendly atmosphere, authentic flavors reminiscent of home‑cooked Egyptian meals, and attentive service.",food_drink,9
Moaa,"MAASAI Cafe, Trivium Square Mall, North 90th Street, Mohammed Nagib Axis, after Rehab Bridge, Fifth Settlement, New Cairo, Cairo, Egypt",25.7150704,32.6493255,"cafe, cozy, instagrammable, luxury","MAASAI Café is a specialty coffee and pastry shop located in New Cairo, Egypt. It offers single-origin beans, various brewing methods, artisanal pastries and chocolate, set in an earth‑toned, boho‑luxury space that celebrates African craftsmanship.",food_drink,9
Oasis Palace,"Dr Labib Habashy Street, Luxor Egypt",25.7050079,32.6438871,"family_friendly, fine_dining, restaurant","Explore the culinary delights of luxor, egypt at Oasis Palace, where flavors come to life. Indulge in a dining experience that suits every palate with $$ - $$$ options and a 4.5 rating.",food_drink,3
Abo Ashraf,,25.6976647,32.6430015,"fine_dining, local_favorite, restaurant","Abou Ashraf Restaurant is a dining establishment located in Shoubra, Cairo, Egypt. The venue operates as a restaurant and is listed under the Restaurants category in local directories. It currently has no available ratings.",food_drink,9
elhareef grills,,25.6900024,32.6408902,"budget_friendly, cozy, restaurant","Our restaurants offer a variety of dishes that are sure to satisfy any craving. And with our fast delivery service, you can enjoy your favorite Grills dishes without leaving your house.",food_drink,9
Alaa el Din,"57 Saqr Qoraish Bldgs. El Nasr St.,Near To Radisson Blu Hotel - Cairo Heliopolis HELIOPOLIS, CAIRO",25.6994016,32.6411458,"budget_friendly, family_friendly, restaurant, street_food","Alaa el Din is a restaurant in Cairo’s Heliopolis district, specializing in traditional Egyptian dishes such as foul and falafel. It operates from 57 Saqr Qoraish Buildings on El Nasr Street, near the Radisson Blu Hotel. The establishment currently has no available ratings.",food_drink,9
Crocodile,,25.7033308,32.6331176,"local_favorite, restaurant, river_view","It is located on the West bank of Nile. Food was good, well-cooked , some items were delicious. It was a buffet lunch : Chinese, Indian, Egyptian dishes with",food_drink,3
Al-Sahaby Lane,"Al-Sahaby St Via Luxor Temple St, Luxor 85951 Egypt",25.7024206,32.6427341,"restaurant, rooftop, scenic","Al-Sahaby Lane Restaurant in Luxor offers authentic Egyptian cuisine in a rooftop setting with a spectacular view of Luxor Temple. From deliciously spiced lentil soup to traditional camel meat, the diverse menu and the cozy, relaxed atmosphere make it a must-visit for food lovers.",food_drink,3
Jamboree Restaurant,"Luxor, Egypt",25.7011892,32.6426272,"nightlife, restaurant, tourist_hotspot",The brilliance of Jamboree restaurant at night amidst the crowd of pedestrians in the old Luxor market. The delicious food leaves a positive impression.,food_drink,3
Al-Sahaby Lane Restaurant,"Al-Sahaby St Via Luxor Temple St, Luxor 85951 Egypt",25.7015002,32.642333,"cozy, restaurant, rooftop, scenic","Al-Sahaby Lane Restaurant in Luxor offers authentic Egyptian cuisine in a rooftop setting with a spectacular view of Luxor Temple. The menu features dishes such as spiced lentil soup and traditional camel meat, providing a diverse culinary experience. The cozy, relaxed atmosphere makes it a must‑visit for food lovers seeking a memorable dining experience.",food_drink,3
Sunflower Restaurant,"Al Baairat Village, Egypt",25.7030792,32.6334097,"river_view, rooftop, scenic","Great location, very close to the Nile and just a few minutes' walk from the local ferry. Large, spacious and airy rooms; a huge roof terrace with views.",food_drink,3
Street food with tables. 5egp for 1 falafel sandwich,"Cairo, Egypt",25.6960086,32.6425795,"budget_friendly, cozy, local_favorite, street_food","Also just a friendly reminder that Egyptian falafel (taameya) differs from non-Egyptian falafel, so be sure to check our local food article to know the difference. Their menu sticks to tradition - liver sandwiches, different kinds of sausage/’sogouk’ sandwiches (oriental sausage, smoked sausage, minced sausage) and a few dessert sandwiches like clotted cream and honey. If you’re on the east side of Cairo (Nasr City, Heliopolis, New Cairo) then Bashandy is a must-go for classic Egyptian street food.",food_drink,9
El Zaeem Restaurant,"6 Emtedad Ahmed Helmi, st، Rod El Farag, القليوبية 4342001, Egypt",25.7014565,32.643919,"cozy, fast_food, restaurant","El Zaeem is a casual eatery situated on Ibrahim Ramadan Street, branching off from Gamal Abdel Nasser. While it isn't prominently featured on major restaurant directories, it does have a minimal profile on Google. This spot is especially popular for lunch and is a convenient choice for solo diners seeking a quick bite or halal options.",food_drink,9
Peace Abou Zeid,"Zamalek Island, Cairo, Egypt",25.7108749,32.645977,"cozy, historical_site, luxury, restaurant","Peace Abou Zeid is an Egyptian restaurant situated on Zamalek Island in Cairo, offering an authentic culinary experience that recalls the Fatimid Empire. The interior is dark and cavernous, adorned with rich old‑style art, low round tables, and live music, evoking a glamorous past atmosphere. The menu features hearty, plentiful dishes that are likely to leave diners feeling drowsy yet well‑fed.",food_drink,9
Shababik Luxor Cafe -كافيه شبابيك الأقصر,"On the Nile in front of Sofitel Winter Palace, Luxor, Egypt",25.6867032,32.6349349,"local_favorite, restaurant, river_view, tourist_hotspot","At El-Kababgy restaurant in Luxor you will find the best authentic Egyptian food. Try delicious traditionally prepared meals such as Mashi, various tagines, grill specialties such as Shish Tawook, Kebab and Kofta, favorite dishes such as Hammam, Fatta, Mesaka'a and Feteer and more while enjoying the beautiful view over the Nile and the West Bank of Luxor.",food_drink,3
Aladdin‘s Kingdom Restaurant,"El jorf, Luxor, Egypt",25.6862829,32.6214526,"family_friendly, restaurant, tourist_hotspot","El jorf, Luxor 00000 Egypt. Proche de notre hôtel,nous avons découvert ce restaurant.",food_drink,3
Restaurant Mohammed,"Cairo, Egypt",25.7225074,32.6046519,"cozy, family_friendly, local_favorite, restaurant","Palestinian restaurant serving authentic cuisine in Cairo, Egypt. Palestinian-owned restaurant offering oriental dishes, grills and Mandi cooked on firewood (Cairo-based). Palestinian Restaurant offering a variety of Gazan dishes (Cairo-based).",food_drink,9
Al zaeem,"6 Emtedad Ahmed Helmi, st، Rod El Farag, القليوبية 4342001, Egypt",25.6945083,32.6356881,"budget_friendly, local_favorite, restaurant","El Zaeem is an Egyptian restaurant located in Rod El Farag, Qalyubia Governorate, Egypt. The establishment offers a menu that includes crepes, pizza, and pasta, and it is listed on delivery platforms such as Talabat. Contact can be made via phone number +201093661717.",food_drink,14
badia Café,,25.6870891,32.6299487,"cafe, cozy, tourist_hotspot",Badiea Cafe is a café located in Luxor that is featured on TripAdvisor with positive visitor reviews. The venue offers a cozy atmosphere and is accessible through a noted entrance. It is recommended for those seeking a relaxed coffee experience in the city.,food_drink,3
Koshari,📍 located on the corner of Maarouf and Champollion streets in Downtown Cairo,25.6986224,32.6414552,"budget_friendly, local_favorite, street_food",This is the most famous Koshari restaurant in Egypt. He started his Koshari cart in 1950 and eventually turned it into a business. 📍 located on the corner of Maarouf and Champollion streets in Downtown Cairo.,food_drink,9
Sunflower Garden,"Al Bairat, Al Qarna, Luxor Governorate 85958, Egypt",25.7056247,32.6321968,"budget_friendly, local_favorite, restaurant","Nestled in the charming area of Al Bairat, Sunflower Restaurant is a culinary gem that showcases the rich flavors of Egyptian cuisine. Renowned for its diverse menu, featuring an array of meat dishes that cater to both traditional and contemporary tastes. As you step inside, you’ll be greeted by warm hospitality and an ambiance that reflects the essence of local culture.",food_drink,3
Gerda's Garden,"Ali Ibn Abi Taleb Street, Luxor, Egypt",25.6916896,32.6364598,"cozy, nature, river_view, romantic","Gerda's Garden is a very beautiful and romantic outdoor restaurant located on the bank of the Nile River in Luxor. It offers brightly colored Egyptian dishes in a scenic riverside setting. The venue is open daily from 11:00 AM to 11:00 PM, except on Monday when it is closed.",food_drink,3
Marina,Lake Lotawana,25.7141281,32.6478525,"cozy, nature, restaurant","Marina 27 is the only restaurant open to the public on Lake Lotawana. Lake Lotawana is a 600-acre lake with 27 miles of shoreline and inhabits over 2,000 residents. The marina was first built in 1934 and maintained by Kaw Boat Company. Cozy bar with a warm, inviting atmosphere.",food_drink,3
Local street food,"Khan el Khalili, Cairo, Egypt",25.7055152,32.6336809,"budget_friendly, cozy, local_favorite, street_food","In Cairo’s famous historic bazaar, Khan el Khalili, head to Fatatri el Hussein pancake house, Farahat for their stuffed pigeon and grilled meat and Naguib Mahfouz Cafe for a slice of Egyptian late‑night entertainment. On the modern side, Zööba inside the Grand Egyptian Museum is a must‑visit, while street vendors like Baba Abdo serve grilled liver and sausages, and Caizo offers traditional Egyptian shawerma in burger buns.",food_drink,9
Juice Bar,12 Broad St,25.6981257,32.6422509,"budget_friendly, cozy, instagrammable","The Juice Bar is a small eatery that specializes in homemade ice cream and fresh juices, offering items such as waffle cones, blackberry ice cream, and assorted premium toppings. It operates from a location at 12 Broad St, providing opening hours from 8:00 am to 9:00 pm. The business emphasizes family‑friendly service and a casual atmosphere, with merchandise like premium t‑shirts and baked goods available for purchase.",food_drink,9
THEBES Restaurant,"Ramla, Luxor, Egypt",25.7019412,32.6332095,"restaurant, river_view, rooftop","Our concept is from the farm to the table. We have a set menu and daily seasonable specials & our fusions range from modern Egyptian cuisine to organic flame grilled burgers. We also offer exceptional vegan and vegetarian choices, and freshly made fruit juices and local beers and wine.",food_drink,3
Al Ramsseum,"West Bank, opposite Luxor, Luxor, Egypt",25.7289528,32.6121196,"historical_site, landmark, tourist_hotspot","The Ramesseum is the memorial temple (or mortuary temple) of Pharaoh Ramesses II (""Ramesses the Great""). It is located in the Theban Necropolis in Upper Egypt, on the west of the River Nile, across from the modern city of Luxor.",culture,3
El Sayeda Zainab Restaurant,,25.7092195,32.6312569,"local_favorite, religious_site, street_food, tourist_hotspot","El Sayeda Zeinab is located in central Cairo, Egypt, within the Cairo Governorate. The area is known for liver sandwiches, koshari, ta‘ameya, and authentic Egyptian street food. El Sayeda Zeinab metro station provides direct access to the district from central Cairo in about seven minutes.",food_drink,9
El Kababgy,"Kornish Al Nile, Luxor City, Luxor, Luxor Governorate 85111, Egypt",25.6967102,32.6360606,"local_favorite, restaurant, river_view, scenic","At El-Kababgy restaurant in Luxor you will find the best authentic Egyptian food. Try delicious traditionally prepared meals such as Mashi, various tagines, grill specialties such as Shish Tawook, Kebab and Kofta, favorite dishes such as Hammam, Fatta, Mesaka'a and Feteer and more while enjoying the beautiful view over the Nile and the West Bank of Luxor. The restaurant is located on the Nile in front of Sofitel Winter Palace.",food_drink,3
Good cheap falafel,"25.6941226, 32.6397749",25.6941226,32.6397749,"budget_friendly, local_favorite, street_food","Though falafel is enjoyed all over the Middle East, Egypt is recognized as the first to eat these flavorful deep fried treats. I ate quite a bit of falafel, but these little guys in Luxor were among my favorite.",food_drink,3
Good cheap vegetarian street food,,25.6944096,32.6397348,"budget_friendly, local_favorite, street_food","The cheapest are the sandwiches – Egyptian bread filled with some Ta’amiya balls and/or foul for around 50 cents. Kushari is a ubiquitous, cheap, and filling dish consisting of small noodles, rice, and lentils. Freshly squeezed fruit juices are sold at small street stalls and are very cheap, too.",food_drink,9
Good cheap vegetarian fast food,"Cairo, Egypt",25.6944232,32.6394906,"budget_friendly, fast_food, local_favorite, street_food","A cheap vegetarian fast‑food outlet in Cairo that serves falafel, ta'amia, koshari, and a variety of vegan dishes at budget‑friendly prices. The menu offers items such as babaganoush, hummus, sweet‑sour fried vegetables with rice, and stuffed mashed potatoes, all noted for being delicious and filling. Customers frequently order from this spot during Ramadan evenings, appreciating the quick service and affordable pricing.",food_drink,9
Good Arabic fast food,"25.6934044, 32.6402001",25.6934044,32.6402001,"budget_friendly, fast_food, local_favorite","1- Enter your address in the address bar above.

2- Browse Fast Food Restaurants in your area and filter based on ratings, offers, or delivery time.

3- Place your order with your restaurant of choice.",food_drink,9
The farmer's House,"البر الغربي بجوار جزيره الموز الأقصر, Luxor Governorate, Egypt",25.6868388,32.6222582,"cozy, local_favorite, restaurant, tourist_hotspot","The farmer's House- البيت الريفي is a hidden gem located on the west bank of Luxor, offering exceptional food that caters to all dietary needs with generous portions. The restaurant emphasizes fresh, locally sourced ingredients from its own garden, creating a unique and delightful dining experience. Patrons praise the fast, welcoming service and warm, family‑owned atmosphere, making it a memorable spot for breakfast, lunch, or dinner.",food_drink,3
Snack Time,"Maabad el karnak St, Luxor Egypt",25.6986323,32.6402876,"fine_dining, restaurant, tourist_hotspot","Explore the culinary delights of luxor, egypt at Snack Time, where flavors come to life. Indulge in a dining experience that suits every palate with $ options and a 4.0 rating. Secure your table via  and savor unique features like Business. With 45 eateries to choose from, delight in exquisite tastes from to on 04/May/2026, 2026.",food_drink,3
El Hussein Restaurant,"hilton st, New, Karnak, Luxor Governorate, Egypt",25.7058644,32.633175,"budget_friendly, local_favorite, restaurant","El Hussein Restaurant, located in Karnak, Luxor, offers authentic Egyptian cuisine with highly praised seafood soup, grilled fish, and vegetarian options. Customers commend the friendly service, low prices, and vibrant atmosphere. It is a popular spot for both locals and visitors seeking traditional dishes.",food_drink,3
Alcaptain Restaurant,,25.7000119,32.6321575,"cozy, local_favorite, restaurant","Alcaptain Restaurant is a dining establishment located in Cairo, Egypt, known for its Egyptian cuisine and vibrant atmosphere. It offers a curated menu featuring traditional dishes in a relaxed setting.",food_drink,9
Green Oasis,"New Cairo, 3rd Setelement , Building 158 , Cairo, Egypt, 11936.",25.7004732,32.630979,"family_friendly, kid_friendly, park","Playgrounds & Amusement Parks. Details. Closed now. New Cairo, 3rd Setelement , Building 158 , Cairo, Egypt, 11936.",entertainment,9
Gerda's Garden,Ali Ibn Abi Taleb Street,25.6916774,32.6367125,"restaurant, river_view, romantic",Gerda's Garden is a very beautiful and romantic outdoor restaurant on the bank of the Nile River in Luxor. The Egyptian dishes here are brightly colored. Monday: Closed,food_drink,3
Hotel El Gezira,"El Gezira Garden Hotel, Luxor, Egypt",25.7050771,32.632831,"nature, restaurant, rooftop, spa","The El Gezira Hotel is a family‑operated 3‑star hotel located on the West Bank of the Nile near Luxor, offering 11 air‑conditioned rooms, a restaurant, a large front terrace, a roof garden with Nile views, and easy access to ferry and boat services. Guests can enjoy traditional Egyptian cuisine, a rooftop terrace, and various recreational activities such as billiards, darts, and nearby horseback riding. The hotel's proximity to historic sites, the Nile, and local attractions makes it a convenient base for exploring Luxor.",relaxation,3
Station Cafeteria,,25.6965167,32.6447497,"cafe, fast_food, restaurant","Get delivery or pickup from Cairo Station Cafe when you order online with DoorDash. Prices are estimated based on your predicted location and may vary across store, enter address for menu prices at your nearest store. Cairo Station Cafe Menu",food_drink,9
Mamma Mia,"Asalah Square, behind 1000 Sanf, Dahab, Egypt",25.6885504,32.6344419,"local_favorite, restaurant, tourist_hotspot","Mamma Mia is located at Asalah Square, behind 1000 Sanf, Dahab, Egypt. It offers Egypt Dine‑In and advertises itself as serving the best Pizza in Egypt. The venue is listed under Italian Food and Restaurants categories.",food_drink,3
Ramses Restaurant & Cafe,"10 Saif El Deen Mahran, Ramses Square, Downtown, Cairo, Egypt, 3111 - SEE MAP",25.7180993,32.6022361,"cafe, restaurant, rooftop, scenic","Panorama Ramsis Hotel & Cafe is a rooftop café and restaurant perched above Ramses Square in downtown Cairo, offering sweeping city and Nile views and a chic bar, elegant restaurant, and breakfast service. It provides air‑conditioned rooms with complimentary Wi‑Fi, showers, and some rooms have balconies or terraces. Its central location places it within walking distance of attractions such as Al‑Azhar Mosque, Genena Mall, and historic Sharia al‑Mu'izz.",food_drink,9
Nile Rose Café Restaurant,"البحيرات، الرمله, Egypt",25.6994094,32.6317498,"cafe, cozy, quiet_place, restaurant","Looking at reviews from diners who have visited Nile Rose, it’s clear that this spot has earned a loyal following. Many guests praise the cafe for its excellent food, relaxed environment, and exceptional service. It’s not uncommon to hear about guests returning time and time again, drawn by both the delicious food and the inviting, friendly atmosphere.",food_drink,3
Wannas Art Cafe Vegetarian Restaurant,,25.7046764,32.6325544,"art_gallery, cafe, restaurant",On the West Bank near the ferry. Luxor's first vegetarian restaurant. Next to the Old El Gezira Hotel 🕙Time? 10am - 11pm in.,food_drink,3
Moon Cafe,,25.7035565,32.6329136,"cafe, local_favorite, restaurant","Moon Café was launched and started its actual activity in 2010 offering coffee products, beverages, desserts, and sandwiches. Since then, we have been continuously evolving and expanding, with the aim of becoming the number one cafe in Saudi Arabia, where we now have over 20 branches. We constantly strive to improve our products to delight our customers.",food_drink,3
Nile Freedom,"Unnamed Road, Al Bairat, Luxor, Luxor Governorate 1345173, Egypt",25.6999952,32.631807,"restaurant, scenic, tourist_hotspot","Nile Freedom Restaurant branch is located at Unnamed Road, Al Bairat, Luxor, Luxor Governorate 1345173, Egypt. Phone+20 10 64842725",food_drink,3
Rmallah,1111 Munroe Ave,25.6878977,32.6350381,"local_favorite, restaurant, street_food","Palestinian restaurant serving authentic cuisine in Cairo, Egypt. Palestinian-owned restaurant offering oriental dishes, grills and Mandi cooked on firewood (Cairo-based).",food_drink,9
كافيه افندينا,"الهرم .جيزه, Giza",25.8980508,32.7202854,"cafe, cozy, local_favorite, tourist_hotspot","Afandina Café in Giza is a popular café located in the pyramids area of Giza. It offers a café experience within the historic site, with opening hours listed for all days. The venue is situated near other local businesses and attractions.",food_drink,10
Mamlouk Tagine,"Nazlet El-Semman, Egypt",25.7086339,32.6324282,"cozy, local_favorite, restaurant","Mamlouk Tagine is an Egyptian restaurant located in Luxor, Egypt, known for serving traditional tagine and a variety of hummus, tahini, kebabs, and lamb dishes. Reviewers describe it as part of the Mamlouk Pyramids Restaurant & Cafe within the Nazlet El-Semman area. It holds a Tripadvisor rating of 2.6 out of 5.",food_drink,3
Hekaya Restaurant,"254Q+XGH, Nasir El-Thawra, Al Omraneyah Al Gharbeyah, El Omraniya, Giza Governorate 3546221, Egypt",25.7060233,32.6330468,"budget_friendly, cafe, cozy, fast_food, restaurant","Hekaya Restaurant is situated on Mostafa Kamel El-Bahry Street, in front of the university library in Shibin al Kawm, Egypt. The venue operates as a restaurant and coffee shop, offering fast‑food options and a selection of coffee beverages. Customers highlight its clean environment, reasonable prices, and friendly service. The restaurant can be accessed via the nearby 254Q+XGH address in the Nasir El‑Thawra area.",food_drink,15
Temple View,"13 Gamaet El Dewal El Arabeya St., Mohandeseen, Giza",25.7015038,32.6329068,"cafe, local_favorite, restaurant","Location Restaurant is a cafe and coffee shop situated at 13 Gamaet El Dewal El Arabeya Street in Mohandeseen, Giza, Egypt. It offers dining and café services within a vibrant neighborhood. The venue aims to provide a pleasant spot for meals and drinks.",food_drink,10
Two Stories,,25.7013473,32.6328215,"cozy, family_friendly, restaurant","Two Stories is a venue that offers a multi-level dining experience in Giza, Egypt. The establishment is positioned near notable landmarks, providing a distinctive setting for guests.",food_drink,10
Mystic Pizza,"56 West Main St. Mystic, CT 06355.",25.701311,32.6328062,"local_favorite, restaurant, tourist_hotspot",Order online from the original in downtown Mystic and pick up your favorite Mystic Pizza merchandise! Finally...A frozen pizza that doesn't taste like a box!,food_drink,3
Al Hassan,Address not provided in scraped data.,25.7052864,32.6332767,"budget_friendly, fast_food, local_favorite, restaurant","Al Hassan is an Egyptian restaurant situated in Luxor that offers fast‑food style dishes with a typical price range of 10‑20 L.E. The venue provides a no‑smoking area and take‑away service, reflecting common local dining practices.",food_drink,3
Nile View,"Novotel Cairo El Borg, Zamalek",25.7053901,32.6335703,"restaurant, rooftop, scenic",On top of the Novotel right next to the Cairo Tower in Zamalek is their rooftop restaurant Cafe Frais. You can also see clear across the Nile and Qasr el Nil Bridge to the Cairo Museum and Tahrir Square.,food_drink,9
Bil Hana Wa Shifa,"Al Qarna Rd Al Bairat, Luxor, EG",25.7051797,32.6333544,"local_favorite, restaurant, tourist_hotspot","Good food, good service and friendly staff. We had a tasty lentil soup and the tagine moussaka meat... Very good restaurant, good grilled chicken.",food_drink,3
Shisha,"Unmarked doorway, Doqqi",25.7050116,32.6334533,"cafe, cozy, local_favorite, tourist_hotspot","Shisha - a perfect way to relax with friends at a coffee shop. Also known as ‘hookah’ or ‘hubbly bubbly’, ‘shisha’ are the ornate, Arabian water pipes through which Egyptians while away the hours toking contentedly on fruit scented tobacco. Contrary to popular belief, there is nothing illicit or untoward occurring.",food_drink,9
Nile Panorama,"Tourist Port, Luxor, EG",25.7100475,32.6393301,"restaurant, river_view, tourist_hotspot","Nile Panorama is a restaurant located on the Tourist Port in Luxor, offering a tranquil riverside setting with panoramic Nile views. Guests note its friendly staff, calm atmosphere, and varied buffet options, though some dishes may be overcooked.",food_drink,3
Nubian House,"حي منشية النوبة، Abu Simbel, Aswan Governorate 1211517, Египет",25.6984302,32.6307716,"cozy, hidden_gem, tourist_hotspot","Have you ever dreamed of finding yourself in a place where time seems to slow down, and an atmosphere of ancient hospitality reigns? Kabara Nubian House is exactly that kind of place. Located in the colorful city of Abu Simbel, which graces sunny Egypt, this establishment is a traditional Nubian house that harmoniously combines the functions of a cozy inn and an authentic restaurant.",food_drink,1
Tut Ankh Amoun,"Cairo, Egypt",25.7027158,32.6337101,"cozy, instagrammable, local_favorite, restaurant","Tut Ankh Amoun is a Palestinian-themed restaurant in Cairo that serves authentic Gazan dishes, grills, and Mandi cooked on firewood. The venue offers a taste of Palestine through traditional Palestinian spices, coffee, nuts, and condiments, creating a cultural dining experience. Its menu reflects the rich culinary heritage of Palestine, presented in a cozy and welcoming setting.",food_drink,9
El Waha,West Bank of Luxor,25.7039702,32.633435,"cozy, local_favorite, restaurant","Welcome to El-Waha Restaurant, the best Egyptian culinary experience on the west bank of Luxor. Located at the heart of the stunning Nile River Valley, our restaurant offers a true taste of Egyptian cuisine, combining traditional recipes with a modern twist. At El-Waha, we take pride in serving authentic Egyptian dishes made from the freshest locally sourced ingredients.",food_drink,3
Abu Aya,"Damanhour Shobra, Shubra El Kheima 1, Al-Qalyubia Governorate 6210315, Egypt",25.6973613,32.6292839,"cozy, family_friendly, restaurant","A visit to Abu El-Hana Restaurant is, above all, an opportunity to embark on a small culinary journey. The menu features dishes rarely found in traditional Egyptian eateries, particularly exquisite Japanese cuisine selections. This makes the restaurant an attractive spot for foodies in Shubra El-Kheima looking to diversify their palate with unique flavor combinations.",food_drink,14
Nile Panorama,"Tourist Port, Luxor, EG",25.7048684,32.634068,"cozy, quiet_place, river_view",Perfect Location on the nile. Atmosphere is very positive and high calmness.,food_drink,3
Shisha,,25.7047777,32.6335215,"cafe, cozy, local_favorite","Becky Anderson meets Egyptian entrepreneur Amr El Fiky who has opened a Shisha Cafe. Shisha in Downtown Cairo. Shisha is good to smoke alone, or with company and forms the basis of Egyptian social life. Shisha cafes are everywhere in Egypt and are especially prevalent where there is a view, such as along the sea front or besides the River Nile.",food_drink,9
Little Nile Beach,"Nile City Towers 2005 B, Corniche El Nil, Ramlet Beaulac 2466, Cairo, Egypt",25.6987359,32.6309414,"river_view, scenic, tourist_hotspot","Little Nile Beach is a waterfront spot in Zamalek, Cairo, Egypt, offering scenic views of the Nile River. The location provides access to several riverside dining venues such as Crimson, The Cooq, River Bank Cairo, and Pier 88, where visitors can enjoy a variety of cuisines. It serves as a popular spot for tourists seeking a relaxing riverside experience.",food_drink,9
Al Moez,"4 Saray El Gezirah St., Zamalek, Cairo Inside Le Pacha 1901 Boat",25.7053268,32.633258,"historical_site, landmark, restaurant","Al Moez is listed as an Egyptian restaurant in the directory, located at 4 Saray El Gezirah St., Zamalek, Cairo inside Le Pacha 1901 Boat. The venue provides phone contact and a website for further information.",food_drink,9
Le Gourmet,"Taha Hussein Street, Zamalek, Cairo, EG",25.7018382,32.6318434,"cozy, local_favorite, luxury","Le Gourmet is a retail gourmet store located on Taha Hussein Street in Zamalek, Cairo, Egypt. It offers food and beverage products, organic items, and operates multiple locations across Egypt, emphasizing premium quality and consistency for over 20 years.",food_drink,9
Jamba Juice,"Kanat Al Suez, Egypt",25.703025,32.6338275,"budget_friendly, cafe, local_favorite","Guava, sugarcane, mango, pomegranate, avocado, kiwi, date, strawberry, watermelon. These are just a few of the juices and smoothies available at juice shops all over Egypt, always fresh and very affordable at less than $2 USD a glass (many times only $0.50 USD, depending on what you get and the size). Come check out a local juice shop in downtown Cairo with me and experience the local juice shops for yourself.",food_drink,9
Villa Sunrise Guest House,"Ramla Street, Gezirat Albairat, West Bank, Luxor 85111 Egypt",25.701982,32.6332436,"adventure, family_friendly, nature, river_view","Villa Sunrise Luxor is a family‑friendly guest house situated on the West Bank of the Nile in Luxor, offering free Wi‑Fi, air‑conditioning, a washing machine and a fully equipped kitchen. The property features a terrace, dining area and easy access to canoeing, horse riding and other outdoor activities. Guests can explore nearby attractions such as Banana Island, Luxor Art Gallery and Luxor Temple within a short walk or drive.",activities,3
West Bank Nile Palace,"14 Ramla West Bank, on the Westbank in Luxor",25.7018243,32.6330784,"local_favorite, restaurant, rooftop, scenic, tourist_hotspot","Nile Palace restaurant location 14 Open until 12:00 AM Ramla West Bank, on the Westbank in Luxor, with a magnificent view. It is located in the heart of the West Bank in Luxor, offering authentic Egyptian cuisine. The venue features a rooftop setting and is popular among locals and tourists.",food_drink,3
Rose of Al-Jorf,"X4VF+V38, Cairo – Alexandria Desert Rd, Kafr Nassar, Al Haram, Giza Governorate 3513203, Egypt",25.6930668,32.6221601,"fine_dining, luxury, restaurant","At the heart of Nahr is an ambitious and beautifully executed menu that bridges the culinary traditions of Greece and Egypt. By pairing refined Greek Mediterranean techniques with the finest local components, the kitchen creates a sophisticated, modern gastronomy that is both innovative and grounded in tradition. Cuisine: Greek Mediterranean cuisine with Egyptian fusion.",food_drink,9
Paris Restaurant,,25.7182511,32.614708,"historical_site, restaurant, tourist_hotspot","Close to the Colossi of Memnon, the restaurant proved to be the perfect place to take a break from the sightseeing and stop for lunch. There are a variety of",food_drink,3
Al Mina,Ismailia Mina Ismailia Free Zone,25.7099505,32.6389164,"fine_dining, luxury, restaurant","In spring 2021, Mina arrived at his now-closed flagship restaurant Estiatorio Ornos, fresh off a plane from Egypt where he had spent a few weeks traveling the country. The FiDi restaurant (the location of the flagship Michael Mina restaurant until its 2020 closure) served Greek cuisine, but when he arrived at the restaurant that day, he unpacked spices and photos from his trip like a kid unwrapping Christmas presents.",food_drink,5
Sunset,,25.7020095,32.6311802,"fine_dining, instagrammable, river_view, romantic","Sunset by the Nile offers dinner by the Nile — an unforgettable evening dining experience with stunning river views, peaceful breeze, and the magical atmosphere of. The riverside setting provides a memorable ambience for guests.",food_drink,3
Arabia Cafeteria,"25.6818977, 32.635722, Egypt",25.6818977,32.635722,"cafe, cozy, restaurant","The Egyptian food industry is one of the oldest in the country's economy and is distinguished by its substantial private ownership. This industry includes restaurants, cafeterias, cafés, fast‑food outlets, delis, food manufacturing operations, catering companies, food transportation services, and more.",food_drink,9
Assad younan,"14 ABRAG BADR,MAADI Maadi ELBALADY ASWAN",25.7007188,32.6490672,"budget_friendly, cozy, local_favorite, restaurant","The venue is a restaurant situated in Aswan, Egypt. It is listed among various dining options in the directory. The address provided details a location in the Maadi area of Aswan.",food_drink,1
Karnak Stuff,"Cairo, Egypt",25.7185463,32.6523407,"cafe, cinema, tourist_hotspot","Karnak Café (Al-Karnak, Arabic: الكرنك) is a novella written in 1974 by Egyptian writer Naguib Mahfouz, winner of the Nobel Prize in Literature in 1988. The novel was made into a film of the same name ""Karnak (film)"") in 1975. Set against the discussions between the patrons of a café in Cairo, the Karnak Café, the book follows the stories of three individuals during the 1960s, including the Six-Day War (1967) and the War of Attrition (1967–70). It therein explores some of the political currents vying for control over Egyptian politics in the 1960s as well as political persecution, the deep state, and state violence.",culture,9
Ghoreya Cafe,"20 Asmaa Zaghloul St., Off El Tayaran St., Nasr city, Cairo Behind Sonesta Hotel, Tower & Casino Cairo",25.7150666,32.6493268,"cafe, cozy, restaurant","The Location Restaurant & Cafe is a café and restaurant located at 20 Asmaa Zaghloul Street, off El Tayaran Street in Nasr City, Cairo, behind the Sonesta Hotel, Tower & Casino. It offers a mix of coffee, international cuisine and light meals in a relaxed setting. The venue operates from two locations and is listed under categories such as Cafes and Coffee Shops, International Cuisine Restaurants, and Restaurants Eat Out. Visitors can find directions, contact details, and customer reviews on local directories.",food_drink,9
El Karnak,"84 Hosny St., El sharabeya, Cairo In Front Of Koshary El Nasr Restaurant",25.7217086,32.6537935,"cozy, local_favorite, restaurant","El Karnak Restaurant is an Egyptian eatery located on Hosny Street in the El Sharabeya district of Cairo, situated opposite the Koshary El Nasr Restaurant. It offers oriental cuisine and serves as a local dining spot for residents and visitors seeking traditional meals. The venue provides a straightforward, accessible setting for enjoying authentic Egyptian dishes.",food_drink,9
Olives,"Head Office: Hehya city, Zagazig, Sharkia, Egypt",25.7297564,32.6566663,"budget_friendly, local_favorite, restaurant","We Have an Excellent Experience in Producing & Manufacturing : ( Olives - Peppers - Artichokes - Gherkins - Mix Vegetables ). Our Story Started in 2008 By Exporting our goods to Arab Countries, Now We Exporting our goods to more than 30 countries : European Union - USA - Russia - Australia... Our Goal is to Achieve Maximum Satisfaction for our Clients, Offering them our Products with High Quality , Reaching New Markets and Looking for New Business Opportunities. The company is located in El Nubarya City, Alexandria, Egypt.",food_drink,4
Genesis,"King Khufu Center, Giza, Egypt",25.7286603,32.6584963,"luxury, scenic, tourist_hotspot","Genesis is a brand with international presence, including an Egyptian location. The Egyptian site is located in Giza near the King Khufu Center overlooking the pyramids. The listing includes multiple global addresses but focuses on the Egyptian market.",activities,10
Gerda's Garden,"Ali Ibn Abi Taleb Street, Luxor, Egypt",25.7292676,32.6589823,"river_view, romantic","Gerda's Garden is a very beautiful and romantic outdoor restaurant on the bank of the Nile River in Luxor. The Egyptian dishes served there are brightly colored. It is located on Ali Ibn Abi Taleb Street and is open daily from 11:00 AM to 11:00 PM, except for Monday when it is closed.",food_drink,3
Gayer-Anderson Museum,"Adjacent to the Mosque of Ahmad ibn Tulun, Sayyida Zeinab, Cairo, Egypt",30.0283804,31.2507258,"art_gallery, historical_site, museum, tourist_hotspot","The Gayer-Anderson Museum is an art museum located adjacent to the Mosque of Ahmad ibn Tulun in the Sayyida Zeinab neighborhood of Cairo, Egypt. It is noted for its 17th-century domestic architecture and includes a collection of furniture, carpets, curios, and other objects gathered by Major Robert Grenville Gayer-Anderson Pasha during his residence there from 1935 to 1942.",culture,9
Galaxy,"Abdulaziz Al Saud 67, Al Manyal Al Gharbi, EG",30.0175359,31.2231997,"cinema, family_friendly, nightlife","Galaxy Cinema is a movie theater located in El-Qahira (Cairo), Egypt. The theater is situated at Abdulaziz Al Saud 67, Al Manyal Al Gharbi, EG. Visit the official website for current showtimes, ticket prices, and movie listings.",entertainment,9
Gomhouria,"Gezira Island, Zamalek, Cairo, Egypt",30.0460126,31.2463568,"concert_venue, landmark, live_shows, theatre, tourist_hotspot","El Gomhouria Theater, located near Abdeen Royal Palace, offers a grand stage for mid-sized performances and remains one of Cairo’s most beloved cultural venues. Situated on Gezira Island in central Cairo, the Cairo Opera House occupies a prominent and symbolic position along the Nile River, its luminous night lighting visible from across the city. The venue blends traditional Islamic architecture with modern Japanese influences, featuring domes, arches, and elegant interior details, and accommodates up to 1,200 guests in its Main Hall.",culture,9
Modern,"Cairo, Egypt",30.1026337,31.2460576,"cinema, historical_site, landmark, tourist_hotspot","The place is situated in Cairo, the heart of Egypt’s film industry often dubbed “Hollywood on the Nile.” It reflects the historic and cultural significance of Egyptian cinema, which has produced a large share of Arab screen output. Recent government initiatives aim to revitalize and modernize this once‑renowned sector.",entertainment,9
Masallat Al-Matareya,"30°7′46.08″N 31°18′26.94″E, Cairo, Egypt",30.1294036,31.3074812,"historical_site, landmark, museum","Masallat Al-Matareya is a historic district in eastern Cairo, encompassing the ancient Masalla Obelisk and the ruins of Heliopolis, one of Egypt's oldest cities. The area features notable sites such as the Tree of Mary and remnants of the Temple of Ra‑Atum, reflecting millennia of Egyptian spiritual and scientific heritage. It functions as an open‑air museum showcasing artifacts from the Old and Middle Kingdoms.",culture,9
Al-Zaeem,"4Mustafa Mahmoud St., from Al – Wehda St., Kerdassa, Giza, Egypt.",29.9948883,31.1616668,"hidden_gem, local_favorite, tourist_hotspot","Al‑Zaeem Factory is a garment manufacturing facility located in Giza, Egypt, established in 1998. It produces a wide range of apparel including pants, sweatshirts, shorts, T‑shirts, jeans, blouses, dresses, and women's gowns, with a daily capacity of approximately 1,850 pieces. The factory employs 65 staff, holds ISO 9001:2008 certification, and exports its products to Arab countries under CIF terms.",other,10
Bab Al-Nasr,"Shari'a al-Gamaliya, Old City, Cairo, Egypt",30.0542304,31.2648995,"historical_site, landmark, tourist_hotspot","Bab al-Nasr, also known as the Gate of Victory, is one of the few remaining gates in the historic wall of Cairo, Egypt. Constructed in 1087 by the vizier Badr al‑Jamali, it stands at the northern end of al‑Gamaliya Street in the old city. The monument consists of two square towers with a central entrance, adorned with raised‑relief shields that symbolize the city's defensive role. It is a well‑preserved example of Fatimid military architecture and is open to visitors free of charge.",culture,9
Bab Al-Mazhareya,"Al-Mu'izz Street, Cairo, Egypt",30.0565166,31.2613649,"accessible, historical_site, landmark, tourist_hotspot","Bab al-Nasr (Gate of Victory) is one of the gates of the northern wall of Fatimid Cairo, and opens onto al-Gamaliya Street. It was built in 480 AH/1087 AD by the vizier and commander-in-chief, Badr al-Jamali, during the reign of Caliph al-Mustansir bi Allah. The current Bab al-Nasr displaced an earlier, brick, gate constructed by Jawhar al-Siqilli, Cairo’s founder. Deeming it insufficient for the protection of the city, Badr decided to construct a new, stone, tower, which he sited farther north.",culture,9
Roxy,"1 Roxy Sq., Heliopolis, Cairo",30.0934241,31.3156978,"cinema, local_favorite, nightlife, tourist_hotspot","Roxy Cinema - Cairo - Egypt - Showtimes، Cinemas Guide، Tickets Prices The theater contains Balcony Level seats. The story revolves around Khalid Al Azzizi, an Interpol agent, who finds himself forced to cooperate with Ghaly Abu Daoud, a member of the Seven Dogs gang, on a joint mission to combat drug trafficking, which puts them in a series of complex crises.",entertainment,9
Normandy,,30.0922295,31.3221794,"cinema, nightlife, tourist_hotspot","Normandy is a cinema in Egypt that is part of a state‑led film industry reconstruction project which includes the renovation of Miami, Diana and Normandy cinemas and the modernization of Cairo’s Cinema City, Studio Nahhas and Studio Ahram. The initiative also involves a 4K restoration of 1960s‑70s classics and the creation of a new digital lab with the Armed Forces Engineering Authority. This project represents the most ambitious public investment in Arabic‑language film since the mid‑20th century.",entertainment,9
City Center,"City Centre Alexandria, Alexandria, Egypt",30.0683421,31.3446867,"cinema, family_friendly, kid_friendly","VOX Cinemas operates within the City Centre Alexandria mall in Egypt, offering a wide range of screening formats including Standard, IMAX, GOLD, 4DX, and Kids. The cinema is part of a larger entertainment complex that features shopping, dining, and family attractions such as Ski Egypt and Magic Planet. It provides diverse movie experiences and advertising opportunities for brands.",entertainment,4
Egyptian Geological Museum,"Maadi, Cairo, Egypt",29.9961855,31.2287249,"historical_site, museum, tourist_hotspot","The Egyptian Geological Museum is a museum in Cairo, Egypt. The museum was established in 1901 as part of the Egyptian Geological Survey, which had been started in 1896 under the direction of the Khedive Ismail. The museum was the first of its kind in the Middle East and the African continent. The original museum was expanded in 1968 with the construction of an annex designed to house the museum's laboratories for petrology and paleontology.",culture,9
falluka rides,"Nile River, Aswan, Egypt",29.9569275,31.2505059,"river_view, romantic, scenic, tourist_hotspot","Discover Felucca Rides On The Nile In Aswan. These Egyptian sailboats have been used for millennia to move up & down the Nile, but they are also an ideal way for a relaxing night, making the most of stay. The best time to enjoy your felucca experience falls between October and April at the time weather stays warm but not scorching.",activities,1
Zamalek Theater,15 Ahmed Heshmat St.,30.0615684,31.2189826,"concert_venue, live_shows, theatre","Zamalek Theater is located in the lively Zamalek neighborhood of Cairo, near the historic Nile‑bank area that once housed the Cairo International Sports Club. The venue functions as a cultural hub, presenting a variety of theatrical productions, concerts, and dance performances. Its intimate setting and central location make it a notable spot for Egypt’s performing arts scene.",entertainment,9
Serapheum,"Saqqara, Giza, Egypt",29.8760471,31.2100388,"historical_site, landmark, tourist_hotspot","It is found around 30 kilometers south of modern-day Cairo and is known as the most enigmatic and historically significant sites in Egyptian archaeology, known for its extraordinary architectural feats and the mysterious manner in which it was constructed. The Serapeum is one of two magnificent ancient Egyptian temples dedicated to the worship of the Greco-Egyptian god Serapis (Sarapis).",culture,10
Family Cinema,VOX Cinemas Egypt,29.9649299,31.2468754,"cinema, family_friendly, kid_friendly, luxury, theatre","Tailoring every cinema location to the surrounding market place and customer preferences, VOX Cinemas offers a mix of experiences including luxury concepts, THEATRE and GOLD. Another signature VOX Cinemas concept, MAX is the mega-screen designed for the biggest blockbusters and features Dolby Atmos surround sound technology.",entertainment,9
Masrah Negm,,30.0385649,31.2108722,"cozy, live_shows, theatre",El Warsha Theatre is located in the historic neighborhood of Al-Darb Al-Ahmar in Cairo and is one of the most renowned theatres in Egypt. The theatre is known for its focus on social and political issues and for its unique performances that blend traditional and modern elements. El Warsha Theatre also offers workshops and training programs for aspiring actors and performers.,entertainment,9
Nilometer in Rhoda Island,"Al Saleh St., 2 Abd El-Malek Lane, Al Manial, Giza Governorate 11518, Egypt",30.0069316,31.2250004,"historical_site, landmark, tourist_hotspot","The Nilometer in Cairo is on Rhoda Island, a short walk from the Oum Kalthoum Museum. It is one of the oldest structures in Egypt built after the Arab conquest. The original building at this site was erected in 751 CE, though archaeologists believe there was probably an older Nilometer at this site in Pharaonic times. This initial structure was destroyed by a heavy flood in 861 CE, so the Abbasid Caliph al-Mutawakkil commissioned the current building to replace it.",culture,9
Wax museum,"Near the Pyramids of Giza as part of the ancient site of Memphis and its necropolis (a world heritage site), the Grand Egyptian Museum is located at El Remayah Square along the Cairo-Alexandria Desert Road.",29.8601958,31.3257085,"accessible, family_friendly, historical_site, museum, tourist_hotspot","After two decades and an estimated cost of $1bn, the Grand Egyptian Museum opened its doors to the public on Tuesday, just a few days after the official opening ceremony on Saturday. The complex spans nearly 500,000sq metres (5,381,900sq ft) and will house more than 100,000 ancient artefacts from the 30 dynasties of ancient Egypt. Near the Pyramids of Giza as part of the ancient site of Memphis and its necropolis (a world heritage site), the Grand Egyptian Museum is located at El Remayah Square along the Cairo-Alexandria Desert Road. It will house tens of thousands of artifacts including the full collection of Tutankhamun’s treasures.",culture,10
Om Kalthom Museum,"Rhoda Island, Cairo, Egypt",30.0076221,31.2248842,"historical_site, landmark, museum, tourist_hotspot","The Oum Kalthoum Museum on Rhoda Island offers a glimpse into the life of this great artist. The Nilometer in Cairo is on Rhoda Island, a short walk from the Oum Kalthoum Museum. This Nilometer is one of the oldest structures in Egypt built after the Arab conquest.",culture,9
Mastaba of Meruduka,"Saqqara, Giza Governorate, Egypt",29.8833055,31.2166617,"historical_site, landmark, tourist_hotspot","The Mastaba of Mereruka is a large, richly decorated tomb in Saqqara, Egypt, featuring vivid wall scenes of cattle herding, hunting, and seasonal personifications. It contains thirty rooms, including chambers for the vizier Mereruka, his wife, and his son, and is highlighted by a life-size statue positioned at the false-door entrance. The site offers insight into Old Kingdom funerary practices and is a major tourist attraction within the Saqqara necropolis.",culture,10
Wissa Wassef Art Center,"Wissa Wassef Art Center, Sakara Road, Harrania, Al Labeini axis, Al Haraneyah, Giza Governorate 12556, Egypt",29.9692025,31.176465,"art_gallery, historical_site, landmark, museum","The Ramses Wissa Wassef Art Center is located in Harrania, Egypt, in a suburb of Cairo, near the Pyramids of Giza. It was founded in 1951 by architect Ramses Wissa Wassef and his wife Sophie as a school and training center for children and young people from the surrounding villages and operates as a cooperative. Today, the Art Center in Harrania is known throughout the world, and many of its artworks hang in museums such as the Metropolitan Museum of Modern Art, the British Museum, and the Victoria and Albert Museum in London.",culture,10
Airport Opera Hall,"Cairo Airport, Cairo, Egypt",30.1181195,31.3917617,"historical_site, landmark, live_shows, theatre, tourist_hotspot","The theatre was designed and executed by the Italian engineer Ferrucci, who was the Director General of the Royal Buildings at that time. Many theatres were modeled after the style of this theatre, such as the Mohamed Ali Theatre and Cinema in Alexandria in 1922 (Sayed Darwish Theatre), Tanta Theatre and Ritz Theatre in 1923, Damanhour Theatre in 1925, Al‑Rihani Theatre in 1926, and the Arab Music Institute Theatre in 1928.",culture,9
Tombs of 3rd Dynasty,"Saqqara, Egypt",29.8768204,31.2132845,"historical_site, landmark, tourist_hotspot","The Third Dynasty of Egypt (c. 2670-2613 BCE) begins with king Djoser, famous for his Step Pyramid at Saqqara. The Step Pyramid began as a simple mastaba tomb with a flat roof and sloping sides, along the lines of many such tombs from earlier dynasties. When completed, the Step Pyramid rose 204 feet (62 meters) high and was the tallest structure of its time. Djoser’s funerary complex at Saqqara exemplifies the notable architectural and cultural developments that occurred during his reign.",culture,10
El-Hawari House,"25 El Khalifa Al Maamoon St, Heliopolis, Cairo, Egypt",30.0443461,31.2633034,"art_gallery, concert_venue, historical_site, tourist_hotspot","The house is located in the heart of a well known quarter in Cairo. At the moment it is been reused as a Cultural Center where different cultural events, lectures musical gala and artistic expositions take place.",culture,9
Film Theatre,38,30.0513259,31.2330343,"cinema, family_friendly, nightlife","Film Theatre is a cinema located in Cairo, Egypt, offering a selection of movies to audiences. It holds a 4.4-star rating based on over a thousand reviews, indicating strong popularity. The venue is situated at address 38 in the Cairo Governorate.",entertainment,9
Cairo Jazz Club,"Al Guezira Plaza, Sheikh Zayed",30.0621268,31.2116073,"concert_venue, live_shows, nightlife","Cairo Jazz Club has stood the test of time as Cairo's ultimate live music hub. Whether you're looking for live music, a night out, delicious cocktails or a",entertainment,9
Cinema Tahrir,"122 Tahrir Street, Dokki, Cairo, Egypt",30.0391714,31.2145136,"cinema, hidden_gem, local_favorite","Tahrir Cinema is a pop-up cinema located in Tahrir Square, Cairo, Egypt. It originated during the 2011 Tahrir sit-in and screens films related to the revolution, serving as a cultural venue for archiving and sharing revolutionary footage.",entertainment,9
Sufi Dervish Dance,"Wekalet al Ghouri Arts Center, Cairo, Egypt",30.0457914,31.2609339,"historical_site, live_shows, tourist_hotspot",Tanoura or whirling dervish show in Cairo is a performance done at Wikalet al Ghouri three days a week. See the whirling dervish show. The Wekalet El Ghoury Arts Center is a architecturally significant building that was built during the reign of Mamelukes. One of the few locations left where genuine Sufi whirling can still be found is Wekalet El Ghouri.,culture,9
بيوتى جيم للسيدات فقط,,30.054511,31.1892965,"cozy, family_friendly, instagrammable","POV: Walking into a ladies-only gym in Egypt with @alexploringlife From spontaneous dance moves to high-energy vibes, Egyptian women know",activities,9
Leo Gym,"Lakehouse, New Cairo; Sun City Compound, New Cairo; The Field, Maadi; Pyramid Hills, 6th of October City; Gezira Club, Zamalek",30.0187134,31.4224438,"beach, family_friendly, nature","Move Gym & Fitness operates multiple locations across the Greater Cairo area, including Lakehouse in New Cairo, Sun City Compound, The Field in Maadi, Pyramid Hills in 6th of October City, and Gezira Club in Zamalek. The facilities range from indoor and outdoor beach gyms to social wellness clubs, offering diverse workout environments. Members can schedule sessions via the provided phone numbers for each location.",activities,9
Titans Gym,,30.0169427,31.4313393,"cozy, family_friendly, local_favorite","Titans Gym is a fitness facility listed under the Gyms & Studios category in Egypt. It appears within the Sports & Fitness Locations dataset for Egypt, which records 10,054 gyms and studios nationwide. The location is situated in the Cairo governorate, as indicated by the state-level data. Its specific address and contact details are not provided in the scraped information.",activities,9
Cinema Lava,"Cairo, Egypt",30.0263224,31.4899538,"cinema, desert, hidden_gem, historical_site, tourist_hotspot","Cinema Lava is an abandoned cinema situated in the Egyptian desert near Cairo, frequently referenced in discussions about Egypt's film industry revival. Online posts highlight its deserted interior and historic significance as a striking example of urban decay. Recent governmental initiatives aim to restore and modernize such historic cinema spaces as part of a broader effort to rejuvenate Egypt's cultural economy.",entertainment,9
Egyptian Textile Museum,"Al-Moez Street, Cairo, Egypt",30.049967,31.2613757,"art_gallery, historical_site, museum, tourist_hotspot","The Display Represents Egyptian Textile Art Throughout History. The Egyptian Textile Hall includes nearly 650 artifacts, of which 250 were transferred from the Egyptian Museum in Tahrir, the Museum of Islamic Art in Bab Al-Khalq, the Mohamed Ali Palace in Manial, the Agricultural Museum, and the stores of the National Museum of Egyptian Civilization, to enrich the display.",culture,9
El Ghaba Sporting Club,"Mohamed Shafik Street, Al-Nozha District, Cairo Governorate., Cairo, Egypt",30.1029396,31.3386946,"cozy, family_friendly, local_favorite","A sports, social, cultural, and entertainment club.

Location: Intersection of Dr. Ahmed Amin Street and Mohamed Shafik Street, behind Heliopolis Hospital, next to El Dawaa Hospital, Heliopolis, Cairo, Egypt.

Mohamed Shafik Street, Al-Nozha District, Cairo Governorate. [...]",entertainment,9
Talaat Harb Culture Center,"1 El Sayeda Nafisa St. El Sayeda Nafissa, Cairo 11511 Egypt",30.0238453,31.2524145,"historical_site, landmark, tourist_hotspot","Address 1 El Sayeda Nafisa St. El Sayeda Nafissa, Cairo 11511 Egypt. Mosque of Muhammad Ali 4.5 (2,784) 0.8 miHistoric. Great shopping and walking place.",culture,9
Sultan lasheen sq,"Zizinia Business Park, Building no.9A, 5th Settlement, New Cairo, Egypt",30.0364699,31.4753056,"nature, park, scenic",Sultan Lasheen Sq is a park in Egypt. It is located in the New Cairo district. The venue provides opening times and a contact phone number.,outdoor,9
Corniche of Mokattam,"Mokattam, Cairo Governorate, Egypt",30.0161162,31.2757109,"cafe, scenic, tourist_hotspot","Enjoying the nearby Corniche with all its shops, cafes, and magnificent views. Having many recreational activities, educational institutions, and medical facilities nearby. Being at the heart of the city, thanks to the area’s central location, and accordingly being close to almost all of Cairo’s attractions.",activities,9
خان الخليلي و ش الحسين,"Al-Muizz Street, Islamic Cairo",30.047772,31.261014,"cozy, historical_site, street_food, tourist_hotspot","Khan el-Khalili (Arabic: خان الخليلي) is a historic bazaar in the heart of Islamic Cairo, dating back to its founding between 1382 and 1389 by Jaharkas al-Khalili. The souq is renowned for its traditional crafts, souvenirs, and lively atmosphere, and it borders important sites such as Al-Hussein Mosque, Al-Azhar Mosque, and Bayn al-Qasrayn. It has been continuously operating for centuries and remains a major cultural and tourist attraction.",culture,9
7ay l 10,"Khan El‑Khalili Market, Cairo, Egypt",30.0491881,31.3790205,"historical_site, local_favorite, tourist_hotspot","7ay l 10 is situated in the historic heart of Cairo, within the famed Khan El‑Khalili bazaar. The venue offers a lively atmosphere of traditional Egyptian crafts, spices, and culinary delights, reflecting centuries‑old market culture. Visitors can experience the vibrant mix of locals and tourists amid the colorful alleys.",culture,9
5ma,"Cairo, Egypt",30.0460752,31.441912,"historical_site, instagrammable, luxury, museum, tourist_hotspot","The place is a contemporary museum situated in Cairo that offers visitors a profound glimpse into Egypt’s millennia‑spanning heritage. Its expansive galleries display over one hundred thousand artifacts ranging from the Pre‑Dynastic period to the Greco‑Roman era, including the celebrated collection of King Tutankhamun's treasures. The museum’s curated exhibits guide guests through ancient daily life, royal funerary preparations, and the architectural splendor of Egypt’s storied past. As one of the world’s largest museums devoted to a single civilization, it serves as a cultural landmark and a premier tourist destination.",culture,9
Home,"El-Fustat, Cairo, Egypt",30.0421271,31.2420527,"accessible, historical_site, museum, tourist_hotspot","The museum is located in El-Fustat, a short drive from central Cairo and near other important landmarks such as the Coptic Museum and Amr Ibn Al-As Mosque. Its accessibility makes it an easy addition to any Cairo itinerary. The museum also plays a role in international cultural diplomacy. Partnerships with global institutions allow for research collaborations and traveling exhibitions, ensuring that Egypt’s history continues to captivate audiences worldwide.",culture,9
The two letters,"Cairo, Egypt",30.1495446,31.3998012,"historical_site, museum, tourist_hotspot","The Grand Open Museum in Cairo showcases Egypt's iconic pyramids, featuring over 135 pyramids and highlighting the Step Pyramid of Djoser, the earliest colossal stone building in the country. The museum also presents historic attractions that range from ancient monuments to coastal sites such as Alexandria and Hurghada.",culture,9
Essam,"Luxor, Egypt, EG",29.9929986,31.1886279,"adventure, guided_tours, luxury, river_view","Founder and CEO at ""Egypt Best Vacations"". Certified Tourist Guide and Travel Planner…",activities,3
تلة المقطم,Mokattam Road,30.0146046,31.2766469,"historical_site, landmark, scenic, tourist_hotspot","The Mokattam Corniche is a tourist attraction located in Cairo, Egypt, situated near تلة المقطم and accessible via Mokattam Road. It is open 24 hours daily. The site also features the historic قلعة محمد علي (Citadel of Muhammad Ali) perched on the hilltop.",culture,9
Villa Fouad Al-lakwah,"327 Villa 327 , 1st settlement, new Cairo , Cairo , egypt",30.0583179,31.4591248,"historical_site, landmark, museum, tourist_hotspot","The world's most comprehensive directory of museums and cultural heritage organizations. The Pyramids of Giza: Visit the iconic ancient pyramids, including the Great Pyramid and the Sphinx, one of the Seven Wonders of the Ancient World. Egyptian Museum: Explore a vast collection of ancient Egyptian artifacts, including treasures from King Tutankhamun’s tomb. Khan El Khalili Bazaar: Wander through this bustling historic market filled with shops selling spices, jewelry, souvenirs, and traditional crafts.",other,9
Coffee shop meeting place,"26th of July Street, Zamalek, Cairo, Egypt",30.0479282,31.2615444,"cafe, cozy, local_favorite","Beano’s Café: one of the best places to have a work meeting, or study. Ahwak Salon de Thé (R): whatever they serve isn’t so special, but I truly love the atmosphere, smoking is allowed inside, so probably it isn’t for everyone [...] Cake Café (R): is an all-time favorite, I go there on business meetings, to work, to meet with friends, or spend some alone time enjoying a big fat slice of Rainbow Cake, Apple Date Cake or Pecan Pie <3.",food_drink,9
Central Bank Club,"54 Elgomhoreya Street, Cairo, Cairo, 11511",30.0324744,31.4804104,"accessible, landmark, tourist_hotspot","Central Bank Club is the headquarters of the Central Bank of Egypt, located at 54 Elgomhoreya Street in Cairo, Egypt. It serves as the monetary authority and key financial institution of the country. The site is recognized as an official government building and a notable landmark in the city.",other,9
Messi Market,Khan El Khalili Market,30.0466533,31.2172707,"historical_site, local_favorite, tourist_hotspot","Exploring Egypt’s biggest market, Khan El Khalili, located in the heart of Islamic Cairo. The historic bazaar offers spices, jewelry, antiques, perfumes, souvenirs, and local crafts, immersing visitors in Egyptian culture. The video highlights the vibrant atmosphere, bargaining, and traditional drinks within the market.",culture,9
ميدان الإسماعيلية,"Maadi Grand Mall Shops # 107 and 408 ميدان المعادى جراند مول, Maadi as Sarayat Al Gharbeyah, Maadi, Cairo Governorate, Egypt",30.0964749,31.3345308,"cozy, hidden_gem, local_favorite, luxury","Emeli Egypt is a leather goods manufacturer located at Maadi Grand Mall Shops # 107 and 408 ميدان المعادى جراند مول, Maadi as Sarayat Al Gharbeyah, Maadi, Cairo Governorate, Egypt. The business identifies as women‑owned and can be reached at +20 2 25195350. It provides leather and footwear manufacturing services in the local area.",other,9
ميدان سفير,"Midan El Missaha Square, Giza, 3750303, Egypt",30.0977231,31.3384234,"luxury, spa, tourist_hotspot","Food options at Safir Hotel Cairo include a restaurant and a cafeteria. Room service is also available. Our hotel provides a 24-hour front desk service. Leisure amenities: A swimming pool is open for guests of the hotel. Guests can also enjoy the following spa/wellness facilities: sauna, steam room, spa tub. Other available services: safe-deposit box - front desk, coffee shop/café and babysitting or child care.",relaxation,10
عمارة باناسونيك,"Cairo, Egypt",30.0935847,31.2363292,"instagrammable, landmark, scenic, tourist_hotspot","عمارة باناسونيك is a Panasonic building located in Cairo, Egypt, that offers a panoramic view and 3D perspective as shown on mapping platforms. The site is notable for its visual appeal and is popular among users for saving and sharing. It provides an elevated outlook over the city.",activities,9
metro banat,"Cairo, Egypt",30.0904104,31.3081285,"historical_site, landmark, tourist_hotspot","The Cairo Metro (Egyptian Arabic: مترو القاهرة, romanized: Metro Anfāq al-Qāhirah,  lit. ""Cairo Tunnel Metro"" or مترو الأنفاق  pronounced (//en.wikipedia.org/wiki/Help:IPA/Egyptian_Arabic ""Help:IPA/Egyptian Arabic"")) is a rapid transit system in Greater Cairo, Egypt. It was the first of the three full-fledged metro systems in Africa and the first in the Middle East to be constructed. It was opened in 1987 as Line 1 from Helwan to Ramses Square with a length of 29 kilometres (18.0 mi).",activities,9
Reftrak Egypt Refrigeration Company,Joseph Tito St. Haikstep Rd. - Salam City (Cairo),30.1389147,31.3968,"budget_friendly, cozy, local_favorite","REFTRUCK COMPANY FOR REFRIGERATION is a refrigeration equipment supplier located at Joseph Tito St. Haikstep Rd. - Salam City in Cairo, Egypt. The company provides supplies and parts for refrigerating equipment and is categorized under home care and furniture: refrigerating equipment - supplies and parts - retail. Contact details include phone number 20 2 4176388 and fax number 20 2 4182863.",other,9
Drs riada,"EIEC, Cairo, Egypt – Hall 2C",29.982908,31.1507764,"accessible, cozy, local_favorite, luxury","Leaders in Law endorses Dr. Tarek Riad as our exclusively recommended Dispute Resolution Law expert in Egypt. If you wish to get in touch with Dr. Riad please use the contact information provided above. Admitted to Bar, 1980, Egypt; 1985, New York.",other,9
Dahi EL kobisi,"Cairo, Egypt",30.0465511,31.260363,"cozy, hidden_gem, local_favorite","Dahi EL Kobisi is a business services location situated in Cairo, Egypt. It is classified under Misc. Business Services and forms part of the dense commercial network of service providers in the city. The venue reflects the widespread availability of administrative and support services across Cairo’s districts.",activities,9
آثار عين شمس . مدينة اون القديمة .,"Cairo, Egypt",30.1260972,31.3192333,"historical_site, landmark, tourist_hotspot","Ayn Shams, meaning “Eye of the Sun” in Arabic, is located where the ancient ancient Egyptian centre Iunu was built. The Greeks called this town “Heliopolis”, referring to the Greek god of the sun Helios, as the Egyptian sun god Ra was worshiped in the main temple. It is one of the oldest capitals of the world.",culture,9
بيت ايهاب,"29.9877088, 31.2762305",29.9877088,31.2762305,"historical_site, landmark, scenic, tourist_hotspot","Being in the center of the world, Egypt is at the crossroads between Europe, Asia and Africa. Egypt offers seamless business continuity with the US and Asia (Follow-the-Sun approach). In line with 2030 Vision and Digital Transformation, Egypt has invested $2bn in internet infrastructure upgrades.",other,9
Point 90 Cinema,"90 بونت مول, القاهرة, QH , EG",30.0201933,31.4943776,"cinema, nightlife, theatre","Point 90 Cinema is a movie theater located in El-Qahira (Cairo), Egypt. The theater is situated at 90 بونت مول, القاهرة, QH , EG. Visit the official website for current showtimes, ticket prices, and movie listings.",entertainment,9
Elite Center,"Nile Business City, Cairo, Egypt",30.060006,31.349513,"luxury, restaurant, river_view, scenic","Elite Center is a massive administrative complex situated in the newly developed Nile Business City near Cairo, Egypt. It features modern office towers, high‑security facilities, a variety of amenities including restaurants and a swimming pool, and is designed with Egyptian‑inspired architectural details. The project is part of a multi‑billion‑dollar development aimed at becoming a leading business and administrative hub.",other,9
نسرين,"Nasr City, Cairo, Egypt",30.0680542,31.3686849,"family_friendly, landmark, tourist_hotspot","Nasr City is home to several must-see attractions that provide a glimpse into both the historical and modern aspects of Cairo. One of the most notable sites is the Egypt International Exhibition Center, where various exhibitions and events take place throughout the year. This venue showcases everything from art to technology, attracting visitors from all over the world.",activities,9
سينما بيت العز,"Cairo, Egypt",30.1099807,31.3190353,"cinema, family_friendly, nightlife","Renaissance Cinemas, Al Arabia Cinema's theatrical arm has been around since February 1998. Renaissance Cinemas today is the leading cinema chain in Egypt with locations all around Cairo as well as other cities and is one of the leading cinema chains in the MENA region as a whole.",entertainment,9
El-Shams Squach,11843 Cairo Egypt,30.1179153,31.361519,"scenic, tourist_hotspot","The El-Shams Stadium (Egyptian Arabic: استاد الشمس, Egyptian Pronunciation:stadium??) is a multi-use stadium with an all-seated capacity of 15,000 located in Cairo Governorate, Egypt. It is the home for El Shams SC and was used as a training center by Ivory Coast at the 2019 Africa Cup of Nations. Location | Heliopolis, Egypt |",activities,9
منزل اسماعيل,Address not available,30.043608,31.1977483,"cafe, local_favorite, restaurant","The placenamed منزل اسماعيل is located in Egypt at coordinates 30.043608, 31.1977483. It is listed with a phone number and appears to be categorized under a location or venue type in the scraped data. The establishment seems to be a local spot offering services typical of a restaurant or cafe.",other,5
Carrefour MAADI,"Address, Ring Rd., El Mearag City Zahraa El Maadi, Maadi, El-Basatin Sharkeya, El Basatin, Cairo, Egypt",29.9822264,31.3161741,"cinema, family_friendly, tourist_hotspot","The launch reinforces the Group’s long‑standing confidence in the Egyptian market, where it has operated for over two decades. It also reflects Majid Al Futtaim’s continued efforts to expand into strategic locations, improve access to high-quality goods and services, and contribute meaningfully to Egypt’s social and economic development in line with Egypt Vision 2030. The new Carrefour store spans 900 square meters and offers over 7,000 products, including fresh and frozen food, bakery items, household essentials, and home appliances—catering to a wide range of consumer needs. Our retail and leisure destinations welcome more than 90 million visitors annually—a testament to the trust and loyalty of Egyptian consumers.",food_drink,9
الحى السادس مدينة نصر,"155 Emtedad Ramses Al Hay As Sades, Nasr City",30.0506511,31.3119196,"local_favorite, religious_site, street_food","الحى السادس مدينة nytt is a vibrant district within Nasr City, Cairo, known for its diverse population and bustling street life. It features numerous mosques, popular Egyptian eateries such as falafel and koshari stands, and convenient access to Cairo International Airport. The area also showcases unique local customs, like distinctive hand signals used to indicate bus routes.",culture,9
الحى السابع مدينة نصر,"23 Al-Batrawi, First Abbas, Nasr City, Cairo Governorate",30.0521637,31.3270502,"cinema, nightlife, religious_site, restaurant, tourist_hotspot","Nasr City, a bustling district in the heart of Cairo Governorate, offers a unique blend of modernity and tradition that captivates both locals and tourists alike. There are many mosques, such as the Masjid al Nour al Mohamedi or Masjid El Ghofran. Nasr City has a variety of shops and leisure spaces including restaurants, coffee shops, and cinemas. The malls are usually very crowded during holidays and summer nights, while the fast-food restaurants and coffee shops remain open and busy until late at night.",activities,9
Tiba mall Cinema,"Tiba Mall, Cairo, Egypt",30.0675204,31.3295391,"cinema, family_friendly, nightlife","Tiba mall Cinema is a movie theater situated within a shopping mall in Cairo, Egypt. It offers a selection of films across multiple screens and operates daily for patrons seeking entertainment.",entertainment,9
Fisher Boats,"Egyptian Museum, Cairo",29.9982082,31.2254095,"historical_site, museum, tourist_hotspot","This fishing model was found in the serdab of Meketre’s tomb which contained 25 wooden models of men and women performing various daily tasks typical of life along the Nile. One vivid and animated scene shows fishermen on board two green-hulled boats used on the river in ancient times; the boats are made from strips of rushes tied with cords. Oarsmen, one in the bow and one in the stern, propel the boats while other men, dressed in white trousers held up by a single brace that crosses the chest, are busy freeing fish from the net slung between the two boats.",culture,9
Fisher Boats,"Egyptian Museum, Cairo",29.9957645,31.2257365,"historical_site, museum, tourist_hotspot","This fishing model was found in the serdab of Meketre’s tomb which contained 25 wooden models of men and women performing various daily tasks typical of life along the Nile. The bright polychrome scene is made vivid by the realism of the portrayals and faithfully reproduces an activity that took place daily on the Nile. The many wooden models found in the tomb of chancellor Meketre represents scenes such as the inspection of animals, weavers and carpenters’ workshops, and boats sailing on the Nile.",culture,9
توتال,"Cairo, Egypt",29.9952593,31.1632697,"historical_site, scenic, tourist_hotspot","Egypt Attractions are endless, found within the heavenly cities of Cairo, Alexandria, Luxor, Aswan, and Sinai showcasing the extraordinary and immortal history, beauty, and culture. Egypt Tours Portal since 1987 has been the key to exploring all the treasures and gems of Egypt tourism attractions and the chance to live the greatest vacation of a lifetime.",culture,9
التبة,,30.0608498,31.3779325,"cozy, family_friendly, local_favorite","The place is described within a guide on selecting a business location in Egypt, highlighting networking opportunities in collaborative workspaces, considerations for branding and image for larger enterprises, and the importance of employee amenities, talent pools, and infrastructure such as reliable internet and transportation. It emphasizes choosing a prestigious address that aligns with brand values and supports operational needs.",other,9
بداية طريق شبرا بنها الجديد,"بداية طريق شبرا بنها الجديد, Egypt",30.1496727,31.2577607,"adventure, historical_site, nature, quiet_place","The location lies in the Western Desert near the Libyan border, providing access to the Siwa Oasis, an untouched oasis featuring ancient date palm trees, salt lakes, and historic ruins. Visitors can explore sites such as Cleopatra's Bath and experience the unique Berber‑influenced culture of the area. The site also serves as a gateway to other Egyptian heritage attractions, including historic monasteries and ancient monuments.",culture,26
New Cairo Convention Centre,"2 El-Nasr Rd, Al Estad, Qesm Than Madinet Nasr, Cairo Governorate",30.0164661,31.3882026,"accessible, landmark, tourist_hotspot","Egypt's geographical location and its political position give a great opportunity to host dozens of international conferences yearly in the political, economic, cultural, medical and professional fields. Therefore, Egypt is leading business events venue. Cairo International Conference Centre (EECA) is located in Nasr City.",activities,9
Crossing to other side of str,"Nuweiba Beach, South Sinai, Egypt",30.093321,31.3386382,"beach, desert, historical_site, landmark","The site is identified as a biblical Red Sea crossing location where ancient pillars erected by King Solomon mark the passage of the Israelites. It is situated near Nuweiba Beach on the Egyptian side of the Red Sea, in the Sinai region. The description references the Exodus route, the Wilderness of Sin, and the crossing point opposite Nuweiba Beach in Saudi Arabia. This historic outdoor landmark attracts visitors interested in religious and archaeological heritage.",culture,20
9D Cinema,"Cairo Governorate, Egypt",30.018479,31.4129939,"cinema, family_friendly, theatre","9D Cinema is a modern movie theater located in Cairo, Egypt, offering a selection of films across multiple screening formats. It provides an immersive viewing experience with advanced technology such as 4DX and special promotional showtimes.",entertainment,9
Main Entrance Gate,,30.0169542,31.3897913,"accessible, historical_site, tourist_hotspot","Main Entrance Gate serves as the primary access point to the Giza Pyramids, offering paved pathways, accessible restrooms, and parking facilities. It provides a convenient entry for visitors, especially those with mobility needs, and connects to the iconic Sphinx and surrounding attractions. The site is highlighted as a key entry for tours and experiences at the historic complex.",culture,10
Sobhy Hussein Mosque,"Khan El-Khalili, Cairo",30.0000041,31.3308456,"historical_site, religious_site, tourist_hotspot","The al-Hussein Mosque (Arabic: مسجد الإمام ٱلحُسين) is a mosque and mausoleum, located near the Khan el-Khalili bazaar in Cairo, Egypt. Containing the tomb of Husayn ibn Ali that was originally built in 1154, the mosque and mausoleum were reconstructed in 1874. The mosque is located adjacent to the famous Al Azhar Mosque, in an area known as Al-Hussain, and is considered to be one of the holiest Islamic sites in Egypt. Some Shias believe that Husayn's head (ra's mubarak) is buried on the grounds of the mosque where a shrine currently stands.",culture,9
Leith ibn saud mosque,"Southern Cemetery, Cairo, Egypt",30.0076121,31.2577156,"historical_site, quiet_place, religious_site","The Mosque and Mausoleum of Imam al-Layth bin Sa'ad is a small Sunni Islam mosque and mausoleum dedicated to the Muslim jurist Imam Al-Layth bin Sa'ad, located in the southern portion of the City of the Dead (Cairo) of the Dead near to the Mausoleum of Imam al-Shafi'i, in Cairo, Egypt. A shrine was first built in 640 AH (1242/1243 CE), four centuries after the death of Imam al-Layth in 791 CE, and has slowly expanded over time. Today the mosque sits in a quiet corner of the Southern Cemetery almost under the Civilisation Museum Bridge overpass that has severed the Southern Cemetery in two since the mid 2010s, and it receives a steady stream of worshippers and visitors who come to pay their respects to Imam al-Layth in a tranquil environment.",culture,9
Nastic,"5A Waterway, New Cairo",30.0158318,31.4230807,"family_friendly, luxury, scenic, theatre","The 5th Settlement location is one of the main factors why it is one of the best areas in New Cairo, as its elite compounds are approximately: [...] Many world-class and local retail stores. Mountain View Hyde Park is one of the lavish compounds in New Cairo’s 5th Settlement. The project covers 200 acres of land, and it is located close to Al Rehab City and a 5-minute drive to AUC. Cairo Festival City Compound boasts a collection of standalone villas, twin houses, townhouses, apartments, penthouses, and duplexes.",activities,9
نادى المحامين النهرى,"Cairo, Egypt",29.9907548,31.2283862,"historical_site, river_view, scenic, tourist_hotspot","The Nile Club (نادي المحامين النهرى) is situated along the banks of the Nile River in Egypt, a waterway that has long served as a hub for tourism and cultural exchange. The surrounding area is known for its historic significance, with nearby attractions related to the Nile’s role in transportation, agriculture, and tourism. Its location near major urban centers and transport corridors enhances its accessibility and appeal to visitors seeking recreational activities.",entertainment,9
miraj hall,"Victor Emanuel Square, Smouha, Alexandria Governorate Alexandria, 5432080 Egypt",29.9559813,31.153332,"beach, family_friendly, tourist_hotspot","Located in the heart of Alexandria, Crowne Plaza Alexandria Mirage places you steps from dining, nightlife, cinemas, shopping malls, and key attractions like Cleopatra Beach and Alexandria Zoo. Host impactful events in the heart of Alexandria at Crowne Plaza Alexandria Mirage. From the Grand Mirage Ballroom to versatile spaces like Flute, Piano, The Curve, and Vibe, and a dedicated conference centre for smart meetings, our venues offer tailored layouts, advanced technology, and expert support for every occasion.",entertainment,4
Metro Cinema,"35 Talaat Harb, Cairo, Egypt",30.0515672,31.241306,"cinema, historical_site, luxury, tourist_hotspot","Metro Cinema is located in downtown Cairo at 35 Talaat Harb, formerly Soliman Pasha Street. Opened in 1939 and inaugurated with the film ""Gone With the Wind"", it was designed by architect Thomas W. Lamb in an Art Deco style alongside local architects Gaston Rossi, Paolo Caccia Dominioni, and Victor Salama. It was the first cinema in Egypt to feature air‑conditioning and retains a distinctive African‑savanna interior following its post‑fire reconstruction.",entertainment,9
ميدان الساعة,"21,Hanna Khalil St.,Kolaly - Shoubra (Cairo)",30.0107095,31.1760607,"budget_friendly, cozy, quiet_place","NAN TRADE is a company located in Cairo, Egypt, at 21, Hanna Khalil St., Kolaly - Shoubra. It operates in the home care and furniture sector, specifically within office supplies. The business is listed in the Egypt Business Database with a profile detailing its address and contact information. The entry provides a Google map reference for the location.",other,9
Attar Art,New Cairo,29.9915813,31.4341179,"art_gallery, museum","Ibrahim Al-Attar Egyptian artist Ibrahim Al-Attar was born in Cairo in 1961, where he still lives. His modern art paintings are based on numerous sketches and are artistic constructions devoid of any intended literary, social, ideological or political meaning.",culture,9
Hnaton Carpet School,"29.8633751, 31.2327498",29.8633751,31.2327498,"historical_site, landmark, tourist_hotspot","Egypt is one of the four ancient civilizations in the world, with a history of more than 5,000 years. It is an old and mysterious country and one of the earliest birthplaces of human civilization.",culture,10
Elmanfy City,"New Capital City, Egypt",29.974924,31.1558991,"family_friendly, luxury, tourist_hotspot","With all these New Capital City attractions, it will become the central nerve of Egypt in no time, where all your needs are present. This wide range of amenities in the city ensures that it is not just a residential and business place, but also everyone’s main destination when it comes to living their life and creating happy memories. What are you waiting for? Hit the WhatsApp button and take the chance with Nawy to live in the middle of all these attractions.",other,9
قيس عبه,,30.0187291,31.1924377,"beach, historical_site, nature","Travel to Egypt, is a major tourist attraction thanks to its strategic location on the Gulf of Aqaba and its diverse natural and historical landscape. Taba is famous for its beautiful sandy beaches, clear waters, and towering mountains, which offer breathtaking views. It also boasts important archaeological sites such as the Saladin Citadel on Pharaoh's Island.",activities,20
شارع الهرم اختصار,"Al Haram, Giza Governorate 3512201, Egypt",30.0036367,31.1857381,"guided_tours, historical_site, landmark, tourist_hotspot","Most visits take about 2–3 hours. Afterward, you can head back to Cairo for lunch, or if you’re on a combo tour, continue exploring Saqqara, Memphis, or relax on a Nile Felucca ride. Address: Al Haram, Giza Governorate 3512201, Egypt. Locate the Pyramids of Giza on the map.",activities,10
Dok Dok Boating,"Lake Nasser, Aswan, Egypt",30.0367696,31.2289963,"adventure, historical_site, luxury","On Lake Nasser, explore specifically Nubian sites such as Kalabsha and Beit El Wali. Get spoiled while traveling with our Luxury Safari Boat, Dabuka Blue, a handcrafted jewelry for your special adventure. Continue your journey with visits to Dakka, Wadi El Seboua, and Meharraqa, each offering unique insights into Nubian culture and history.",culture,1
Sharia al Muizz Li Din Allah,Islamic Cairo,30.0467278,31.2600713,"historical_site, landmark, tourist_hotspot","Sharia Al Muizz, as it’s usually called, named after the Fatimid caliph who conquered Cairo in AD 969, was Cairo's grand thoroughfare, once chock-a-block with storytellers, entertainers and food stalls. The part of Sharia Al Muizz just north of Khan Al Khalili’s gold district is known as Bein Al Qasreen, a reminder of the great palace complexes that flanked the street during the Fatimid era. Today the great Mamluk complexes provide one of Cairo’s most impressive assemblies of minarets, domes and striped-stone facades.",culture,9
سيدنا الحسين,"Near Khan el-Khalili bazaar, Islamic Cairo, Cairo, Egypt",30.0465867,31.2614212,"historical_site, religious_site, tourist_hotspot","Al-Hussein Mosque (Arabic: مسجد الإمام ٱلحُسين) is a mosque and mausoleum, located near the Khan el-Khalili bazaar in Cairo, Egypt. Containing the tomb of Husayn ibn Ali that was originally built in 1154, the mosque and mausoleum were reconstructed in 1874. The mosque is located adjacent to the famous Al Azhar Mosque, in an area known as Al-Hussain, and is considered to be one of the holiest Islamic sites in Egypt.",culture,9
السيدة نفيسه,"El-Fustat Road, Ein Elsira, Cairo",30.019316,31.2510038,"historical_site, landmark, museum, tourist_hotspot","The Grand Egyptian Museum (GEM; Egyptian Arabic: المتحف المصري الكبير el-Matḥaf el-Miṣriyy el-Kebir) is a national archaeological museum in Giza, Egypt. Dedicated to Ancient Egypt and its culture, society, and artifacts, the GEM is the largest museum in the world for a single civilization. Located about 2 kilometres (1.2 mi) from the Giza Pyramid Complex, the museum houses a collection of Egyptian artifacts from various periods of Egyptian civilization, from the Predynastic Period to Roman Egypt.",culture,9
Echo Club,"Cairo, Egypt",30.0590851,31.2077712,"live_shows, luxury, nightlife","Echo Privé is the finest khaliji club redefining the next level of entertainment in Egypt. Echo Privé offers you an ultra‑luxurious lounge and a high‑energy nightclub. Dance the night away to the best of Khaliji music & latest hits, whilst enjoying VIP benefits such as international DJs & live performances. The venue is one of a kind, decked out in black and gold touches with an exquisite stage and a DJ booth.",entertainment,9
ashraf,,30.1294985,31.2741646,"guided_tours, historical_site, nature, scenic","We offer many tourist services from Cairo to Aswan at the best prices Enjoy a day tour from Luxor to Edfu and Kom Ombo to see two of the most beautiful temples in Egypt, the Kom Ombo Temple and the Edfu Temple. Aswan, the enchanting jewel of southern Egypt, is famous for its stunning natural scenery and unique ancient monuments.",activities,9
Sinnari House,"Monge passage, near Sayeda Zeinab Mosque, Cairo, Egypt",30.0329709,31.2427314,"historical_site, landmark, tourist_hotspot","El Sennari's house, located near the Sayeda Zeinab Mosque in Cairo, was built by Ibrahim Khatkhuda El Sennari in 1794 and was used by French scientists during the Description de l'Égypte project. It features one of the largest Mashrabeya window displays in Egypt and a common open courtyard typical of historical Egyptian houses.",culture,9
Sinnari House,"Monge passage, Cairo, Egypt",30.0480594,31.2374762,"historical_site, landmark, museum","El Sennari's house, Located far from the main tourist attractions of Egypt, Cairo, travelers who visit Egypt always miss the medieval Arab neighborhoods, but today we offer our travelers a second time in Cairo to know (Beit El Sennari) the Sennari House, located near the Sayeda Zeinab Mosque in Cairo. The El Sennari house was built by Ibrahim Khatkhuda El Sennari, a wealthy merchant in 1794.",culture,9
Zamalek tree,"Al Borg Street and entrance of Cairo Tower, Zamalek, Cairo, Egypt",30.0466497,31.2250489,"historical_site, landmark, nature, quiet_place","Located at Al Borg Street and at the entrance of the Cairo tower, the National Tree of India salutes you, the tree celebrated by the Indian Nobel Laureate Rabindranath Tagore. It is one of the oldest banyan trees in Cairo, planted in 1868 – the same year poet Laureate Ahmed Shawqi was born.",culture,9
Tersa Youth Center,Government District - New Administrative Capital,29.9666312,31.2098791,"cozy, family_friendly, kid_friendly, local_favorite","Tersa Youth Center is a youth development facility operating under Egypt’s Ministry of Youth and Sports, engaged in research and capacity‑building projects aimed at enhancing programs and administrative efficiency. The center collaborates with UNFPA and focuses on increasing youth participation, especially among females, and improving activity offerings across multiple governorates. Its initiatives emphasize community service, education, and sports to empower young Egyptians.",activities,9
حديقه عباد الرحمن,"Medieval Cairo, Egypt",30.0133768,31.3126343,"historical_site, nature, park, scenic","Al-Azhar Park (Arabic: حديقة الأزهر) is a public park located in qism al-Darb al-Ahmar, in Historic Cairo, Egypt. It covers an area of 30 hectares (74 acres) and was created in May 2005. The park revitalized the Darb al-Ahmar neighborhood, uncovering the Ayyubid wall and surrounding over 60 historical monuments.",outdoor,9
Anubieion,"Saqqara, Egypt",29.8751644,31.2230149,"historical_site, religious_site, tourist_hotspot","In a nearby shaft, the team unearthed cat mummies along with human remains. Just north of the Bubasteion is the Anubieion, a temple complex dedicated to the jackal-headed god of death, Anubis, where mazelike tunnels are estimated to have held millions of mummified dogs. Beyond that are catacombs once filled with mummified ibises, hawks and baboons. To the west is the Serapeum, where Apis bulls were laid to rest.",culture,10
شقة مصر نصر,"مدينة نصر, Cairo, Egypt",30.0457664,31.3464302,"cozy, family_friendly, quiet_place","The listing advertises a strategically located apartment in Nasr City, offering modern amenities and convenient access to urban facilities. Images showcase various rooms and living spaces, indicating a well-furnished rental option. The property is positioned within a vibrant district known for its residential appeal.",other,9
قهوة شيشة مهندسين,Address not provided,30.0617966,31.2040796,"cafe, cozy, instagrammable","The venue is a coffee and shisha establishment situated in Cairo, providing a setting that combines traditional shisha with contemporary coffee selections. Its location falls within a bustling commercial district known for engineering and business services, reflecting a dynamic professional environment. The spot aligns with Egypt’s expanding specialty coffee culture, attracting patrons seeking a relaxed yet lively atmosphere.",food_drink,9
Big Screen,Cairo,29.9871935,31.4401287,"cinema, desert, nightlife","A starry sky, the glow of the big screen, and a night filled with shared laughter and warmth ✨🎬 
Egypt’s first open-air cinema is where movie magic truly comes alive — join us for the next unforgettable night 🍿",entertainment,9
Al Masar Art Gallery,"Baehler’s Mansion, 157 b. 26 July St., Ground Floor, Zamalek, Cairo, Egypt",30.0594759,31.2242203,"art_gallery, museum, quiet_place","Capitalizing on an experience of twenty years in the curating and promoting of Modern and Contemporary Egyptian Art, I have transformed a turn of the twentieth Century space into a unique exhibition venue. Al Masar Gallery has established collaborations with major international museums and galleries in the modern art sphere, demonstrating leadership in promoting Egypt’s Modern and Contemporary Art.",culture,9
هيئ تعاونيات البناء,"Al Qahirah, Egypt",30.050965,31.3469807,"accessible, hidden_gem, local_favorite","هيئ تعاونيات البناء is a governmental cooperative that focuses on construction services within the Business Services sector of Egypt. It operates in Cairo, providing construction and home improvement services to the local community. The organization is listed among the many Business Services locations across the capital.",other,9
Cleopatra’s Museum,"Tahrir Square, Cairo, Egypt",29.9972735,31.217199,"historical_site, museum, tourist_hotspot","The Egyptian Museum also known Cairo Museum is the oldest archaeological museum in the Middle East, and houses the largest collection of Pharaonic antiquities in the world located in the heart of Tahrir Square, Cairo. The Museum of Egyptian Antiquities is a unique building designed to host the world’s oldest collection of Pharaonic art and monuments. Built on an area of 13,600 sq. meters, with more than 100 exhibition halls, the museum is a product of a competition launched by the Egyptian Government in 1895 and thus it is considered the first national museum in the Middle East. The star exhibit has for the best part of a century been the treasure’s of Tutankhamun’s tomb (discovered in 1922) which occupy two whole galleries on the upper floor.",culture,9
